[{"title":"Bob Orcington","species":"Possum","address":"801-805 Brampton Ln St Augustine, FL 32084","LatLng":{"lat":29.914566,"lng":-81.35446}},{"title":"Bird Box","species":"Bird","address":"804 Brampton Ln St.Augustine, FL","LatLng":{"lat":29.914982,"lng":-81.354063}},{"title":"Something","species":"Turtle","address":"1302-1316 Fruit Cove Dr N Fruit Cove, FL 32259","LatLng":{"lat":30.112912,"lng":-81.632626}},{"title":"Something","species":"Turtle","address":"1302-1316 Fruit Cove Dr N Fruit Cove, FL 32259","LatLng":{"lat":30.112912,"lng":-81.632626}},{"title":"Something","species":"Turtle","address":"1302-1316 Fruit Cove Dr N Fruit Cove, FL 32259","LatLng":{"lat":30.112912,"lng":-81.632626}},{"title":"Something","species":"Turtle","address":"115 Tidecrest Pkwy Ponte Vedra Beach, FL 32081","LatLng":{"lat":30.102878,"lng":-81.419669}},{"title":"New Thing","species":"Squirrel","address":"4701-4803 County Road 13 S Elkton, FL 32033","LatLng":{"lat":29.75833909999999,"lng":-81.4756517}},{"title":"Evan Bird","species":"Bird","address":"7816 Southside Blvd Jacksonville, FL ","LatLng":{"lat":30.22914159999999,"lng":-81.5564708}}]